<?xml version="1.0" encoding="UTF-8" standalone="no"?>
<gpx version="1.1" creator="GPS waypoints www.keuwl.com">
<metadata></metadata>
<wpt lat="51.563084" lon="-0.16369446">
<name>Bronze Age Burial Mound</name>
<desc>Icon="2"</desc>
<time>2015-11-12T22:22:00Z</time>
</wpt>
<wpt lat="51.563362" lon="-0.170299">
<name>Main Bridge </name>
<desc>Icon="2"</desc>
<time>2015-11-12T22:22:00Z</time>
</wpt>
<wpt lat="51.564056" lon="-0.17069018">
<name>Minor Bridge </name>
<desc>Icon="1"</desc>
<time>2015-11-12T22:22:00Z</time>
</wpt>
<wpt lat="51.55763" lon="-0.167533">
<name>Carpark</name>
<desc>Icon="1"</desc>
<time>2015-11-12T22:22:00Z</time>
</wpt>
<wpt lat="51.567055" lon="-0.17810924">
<name>Two Tree Hill</name>
<desc>Icon="1"</desc>
<time>2015-11-12T22:22:00Z</time>
</wpt>
<wpt lat="51.57085" lon="-0.18102393">
<name>Faux Fountain</name>
<desc>Icon="7"</desc>
<time>2015-11-12T22:22:00Z</time>
</wpt>
<wpt lat="51.577316" lon="-0.18728091">
<name>Steps/Spire</name>
<desc>Icon="1"</desc>
<time>2015-11-12T22:22:00Z</time>
</wpt>
<wpt lat="51.573371" lon="-0.143292">
<name>Cholmeley_Roundabout</name>
<desc>Icon="1"</desc>
<time>2015-11-12T22:22:00Z</time>
</wpt>
<wpt lat="51.572753" lon="-0.143229">
<name>Cholmeley_Cresent</name>
<desc>Icon="1"</desc>
<time>2015-11-12T22:22:00Z</time>
</wpt>
<wpt lat="51.595361" lon="-0.0322966">
<name>Oakfield</name>
<desc>Icon="1"</desc>
<time>2015-11-12T22:22:00Z</time>
</wpt>
</gpx>
